[{"name":"Twitter","category_code":"social","number_of_employees":1300,"founded_year":2006.0,"deadpooled_year":null,"description":"Real time communication platform","latitude":37.7768052,"longitude":-122.4169244,"country":"USA","state":"CA","city":"San Francisco","currency":"Dolares estadounidenses","total_amount_raised":1160000000.0,"geo":{"type":"Point","coordinates":[-122.4169244,37.7768052]}},{"name":"Plaxo","category_code":"web","number_of_employees":50,"founded_year":2002.0,"deadpooled_year":null,"description":"Contact Management","latitude":37.387845,"longitude":-122.055197,"country":"USA","state":"CA","city":"Sunnyvale","currency":"Dolares estadounidenses","total_amount_raised":28300000.0,"geo":{"type":"Point","coordinates":[-122.055197,37.387845]}},{"name":"eBay","category_code":"web","number_of_employees":15000,"founded_year":1995.0,"deadpooled_year":null,"description":"Online Marketplace","latitude":37.295005,"longitude":-121.930035,"country":"USA","state":"CA","city":"San Jose","currency":"Dolares estadounidenses","total_amount_raised":6700000.0,"geo":{"type":"Point","coordinates":[-121.930035,37.295005]}},{"name":"Kyte","category_code":"games_video","number_of_employees":40,"founded_year":2006.0,"deadpooled_year":null,"description":"Online & Mobile Video Platform","latitude":37.788482,"longitude":-122.409173,"country":"USA","state":"CA","city":"San Francisco","currency":"Dolares estadounidenses","total_amount_raised":23400000.0,"geo":{"type":"Point","coordinates":[-122.409173,37.788482]}},{"name":"Jingle Networks","category_code":"mobile","number_of_employees":35,"founded_year":2005.0,"deadpooled_year":null,"description":"Voice and Mobile Search","latitude":37.480999,"longitude":-122.173887,"country":"USA","state":"NY","city":"New York","currency":"Dolares estadounidenses","total_amount_raised":88700000.0,"geo":{"type":"Point","coordinates":[-122.173887,37.480999]}},{"name":"Meetup","category_code":"web","number_of_employees":75,"founded_year":2002.0,"deadpooled_year":null,"description":"Local community","latitude":40.72604,"longitude":-73.995722,"country":"USA","state":"NY","city":"New York","currency":"Dolares estadounidenses","total_amount_raised":18300000.0,"geo":{"type":"Point","coordinates":[-73.995722,40.72604]}},{"name":"Jajah","category_code":"mobile","number_of_employees":110,"founded_year":2005.0,"deadpooled_year":null,"description":"IP Communications Platform","latitude":37.4233896,"longitude":-122.0899512,"country":"USA","state":"CA","city":"Mountain View","currency":"Dolares estadounidenses","total_amount_raised":33000000.0,"geo":{"type":"Point","coordinates":[-122.0899512,37.4233896]}},{"name":"Livestream","category_code":"games_video","number_of_employees":120,"founded_year":2007.0,"deadpooled_year":null,"description":"Live streaming platform and website","latitude":40.726155,"longitude":-73.995625,"country":"USA","state":"NY","city":"New York","currency":"Dolares estadounidenses","total_amount_raised":14700000.0,"geo":{"type":"Point","coordinates":[-73.995625,40.726155]}},{"name":"Yahoo!","category_code":"web","number_of_employees":13600,"founded_year":1994.0,"deadpooled_year":null,"description":"News and On-line directory","latitude":37.418531,"longitude":-122.025485,"country":"USA","state":"CA","city":"Sunnyvale","currency":"Dolares estadounidenses","total_amount_raised":6800000.0,"geo":{"type":"Point","coordinates":[-122.025485,37.418531]}},{"name":"Ustream","category_code":"games_video","number_of_employees":250,"founded_year":2007.0,"deadpooled_year":null,"description":"Live Social Video Community","latitude":37.392936,"longitude":-122.07948,"country":"USA","state":"CA","city":"San Francisco","currency":"Dolares estadounidenses","total_amount_raised":60100000.0,"geo":{"type":"Point","coordinates":[-122.07948,37.392936]}},{"name":"Pando Networks","category_code":"games_video","number_of_employees":23,"founded_year":2004.0,"deadpooled_year":null,"description":"Accelerating large media delivery","latitude":40.722655,"longitude":-73.99873,"country":"USA","state":"NY","city":"New York","currency":"Dolares estadounidenses","total_amount_raised":11000000.0,"geo":{"type":"Point","coordinates":[-73.99873,40.722655]}},{"name":"SideStep","category_code":"web","number_of_employees":75,"founded_year":1999.0,"deadpooled_year":null,"description":null,"latitude":37.374998,"longitude":-121.977853,"country":"USA","state":"CA","city":"Santa Clara","currency":"Dolares estadounidenses","total_amount_raised":32000000.0,"geo":{"type":"Point","coordinates":[-121.977853,37.374998]}},{"name":"RockYou","category_code":"games_video","number_of_employees":106,"founded_year":2005.0,"deadpooled_year":null,"description":"Social Gaming Company","latitude":37.484619,"longitude":-122.206893,"country":"USA","state":"CA","city":"Redwood City","currency":"Dolares estadounidenses","total_amount_raised":136000000.0,"geo":{"type":"Point","coordinates":[-122.206893,37.484619]}},{"name":"Netvibes","category_code":"web","number_of_employees":35,"founded_year":2005.0,"deadpooled_year":null,"description":"Dashboard Everything","latitude":48.870806,"longitude":2.34668,"country":"FRA","state":null,"city":"Paris","currency":"Dolares estadounidenses","total_amount_raised":16000000.0,"geo":{"type":"Point","coordinates":[2.34668,48.870806]}},{"name":"Pageflakes","category_code":"web","number_of_employees":20,"founded_year":2006.0,"deadpooled_year":null,"description":"AJAX Homepage Service","latitude":37.758113,"longitude":-122.414689,"country":"USA","state":"CA","city":"San Francisco","currency":"Dolares estadounidenses","total_amount_raised":4099999.9999999995,"geo":{"type":"Point","coordinates":[-122.414689,37.758113]}},{"name":"Meebo","category_code":"web","number_of_employees":200,"founded_year":2005.0,"deadpooled_year":null,"description":"Organizes the web around people.\t","latitude":37.393679,"longitude":-122.079017,"country":"USA","state":"CA","city":"Mountain View","currency":"Dolares estadounidenses","total_amount_raised":70000000.0,"geo":{"type":"Point","coordinates":[-122.079017,37.393679]}},{"name":"Eventbrite","category_code":"web","number_of_employees":200,"founded_year":2006.0,"deadpooled_year":null,"description":"Online event management & ticketing","latitude":37.779507,"longitude":-122.39071,"country":"USA","state":"CA","city":"San Francisco","currency":"Dolares estadounidenses","total_amount_raised":140000000.0,"geo":{"type":"Point","coordinates":[-122.39071,37.779507]}},{"name":"LinkedIn","category_code":"social","number_of_employees":4800,"founded_year":2003.0,"deadpooled_year":null,"description":"Professional Social Networking","latitude":37.423258,"longitude":-122.073635,"country":"USA","state":"CA","city":"Mountain View","currency":"Dolares estadounidenses","total_amount_raised":200000000.0,"geo":{"type":"Point","coordinates":[-122.073635,37.423258]}},{"name":"iLike","category_code":"games_video","number_of_employees":28,"founded_year":2002.0,"deadpooled_year":null,"description":"social music discovery site","latitude":47.615313,"longitude":-122.323408,"country":"USA","state":"WA","city":"Seattle","currency":"Dolares estadounidenses","total_amount_raised":16500000.0,"geo":{"type":"Point","coordinates":[-122.323408,47.615313]}},{"name":"Zvents","category_code":"web","number_of_employees":55,"founded_year":2005.0,"deadpooled_year":null,"description":"Local events and entertainment guides","latitude":37.553121,"longitude":-122.301534,"country":"USA","state":"CA","city":"San Mateo","currency":"Dolares estadounidenses","total_amount_raised":31200000.0,"geo":{"type":"Point","coordinates":[-122.301534,37.553121]}},{"name":"oDesk","category_code":"web","number_of_employees":120,"founded_year":2005.0,"deadpooled_year":null,"description":"Online workplace","latitude":37.479952,"longitude":-122.178557,"country":"USA","state":"CA","city":"Redwood City","currency":"Dolares estadounidenses","total_amount_raised":44000000.0,"geo":{"type":"Point","coordinates":[-122.178557,37.479952]}},{"name":"GoingOn","category_code":"software","number_of_employees":40,"founded_year":2008.0,"deadpooled_year":null,"description":"Private Academic Networks","latitude":37.782263,"longitude":-122.392142,"country":"USA","state":"CA","city":"San Francisco","currency":"Dolares estadounidenses","total_amount_raised":8500000.0,"geo":{"type":"Point","coordinates":[-122.392142,37.782263]}},{"name":"Flixster","category_code":"web","number_of_employees":75,"founded_year":2006.0,"deadpooled_year":null,"description":"Movie social networking","latitude":37.766909,"longitude":-122.406676,"country":"USA","state":"CA","city":"San Francisco","currency":"Dolares estadounidenses","total_amount_raised":7180000.0,"geo":{"type":"Point","coordinates":[-122.406676,37.766909]}},{"name":"Bazaarvoice","category_code":"software","number_of_employees":600,"founded_year":2005.0,"deadpooled_year":null,"description":"Word of mouth marketing","latitude":30.407545,"longitude":-97.717667,"country":"USA","state":"TX","city":"Austin","currency":"Dolares estadounidenses","total_amount_raised":131000000.0,"geo":{"type":"Point","coordinates":[-97.717667,30.407545]}},{"name":"PowerReviews","category_code":"social","number_of_employees":120,"founded_year":null,"deadpooled_year":null,"description":"Social Commerce Solutions","latitude":37.779558,"longitude":-122.393041,"country":"USA","state":"CA","city":"San Francisco","currency":"Dolares estadounidenses","total_amount_raised":40100000.0,"geo":{"type":"Point","coordinates":[-122.393041,37.779558]}},{"name":"hi5","category_code":"games_video","number_of_employees":100,"founded_year":2003.0,"deadpooled_year":null,"description":"","latitude":37.788668,"longitude":-122.400558,"country":"USA","state":"CA","city":"San Francisco","currency":"Dolares estadounidenses","total_amount_raised":52000000.0,"geo":{"type":"Point","coordinates":[-122.400558,37.788668]}},{"name":"Tagged","category_code":"social","number_of_employees":162,"founded_year":2004.0,"deadpooled_year":null,"description":"","latitude":37.7753,"longitude":-122.4186,"country":"USA","state":"CA","city":"San Francisco","currency":"Dolares estadounidenses","total_amount_raised":28700000.0,"geo":{"type":"Point","coordinates":[-122.4186,37.7753]}},{"name":"Curse","category_code":"games_video","number_of_employees":58,"founded_year":2006.0,"deadpooled_year":null,"description":"Online games media company","latitude":37.787092,"longitude":-122.399972,"country":"USA","state":"CA","city":"San Francisco","currency":"Dolares estadounidenses","total_amount_raised":12000000.0,"geo":{"type":"Point","coordinates":[-122.399972,37.787092]}},{"name":"Grockit","category_code":"social","number_of_employees":25,"founded_year":2006.0,"deadpooled_year":null,"description":"Online social learning games","latitude":37.775196,"longitude":-122.419204,"country":"USA","state":"CA","city":"San Francisco","currency":"Dolares estadounidenses","total_amount_raised":44700000.0,"geo":{"type":"Point","coordinates":[-122.419204,37.775196]}},{"name":"Vuze","category_code":"games_video","number_of_employees":20,"founded_year":2005.0,"deadpooled_year":null,"description":"","latitude":37.4858654,"longitude":-122.2262606,"country":"USA","state":"CA","city":"San Mateo","currency":"Dolares estadounidenses","total_amount_raised":34000000.0,"geo":{"type":"Point","coordinates":[-122.2262606,37.4858654]}},{"name":"PayScale","category_code":"software","number_of_employees":130,"founded_year":1999.0,"deadpooled_year":null,"description":"Cloud Compensation Software","latitude":47.5999337,"longitude":-122.3276962,"country":"USA","state":"WA","city":"Seattle","currency":"Dolares estadounidenses","total_amount_raised":31100000.0,"geo":{"type":"Point","coordinates":[-122.3276962,47.5999337]}},{"name":"BuddyTV","category_code":"games_video","number_of_employees":20,"founded_year":2005.0,"deadpooled_year":null,"description":"Online TV guide and viewer community","latitude":47.61968,"longitude":-122.356756,"country":"USA","state":"WA","city":"Seattle","currency":"Dolares estadounidenses","total_amount_raised":10600000.0,"geo":{"type":"Point","coordinates":[-122.356756,47.61968]}},{"name":"IMVU","category_code":"web","number_of_employees":150,"founded_year":2004.0,"deadpooled_year":null,"description":"Online 3D Community","latitude":37.3927975,"longitude":-122.0727749,"country":"USA","state":"CA","city":"Mountain View","currency":"Dolares estadounidenses","total_amount_raised":29000000.0,"geo":{"type":"Point","coordinates":[-122.0727749,37.3927975]}},{"name":"AOL","category_code":"web","number_of_employees":8000,"founded_year":1985.0,"deadpooled_year":null,"description":"","latitude":40.7311317,"longitude":-73.9919311,"country":"USA","state":"NY","city":"New York","currency":"Dolares estadounidenses","total_amount_raised":1000000000.0,"geo":{"type":"Point","coordinates":[-73.9919311,40.7311317]}},{"name":"Dropbox","category_code":"software","number_of_employees":350,"founded_year":2007.0,"deadpooled_year":null,"description":"Always have your stuff, wherever you are","latitude":37.7909427,"longitude":-122.4084994,"country":"USA","state":"CA","city":"San Francisco","currency":"Dolares estadounidenses","total_amount_raised":257000000.0,"geo":{"type":"Point","coordinates":[-122.4084994,37.7909427]}},{"name":"Yola","category_code":"web","number_of_employees":70,"founded_year":2007.0,"deadpooled_year":null,"description":"Free Websites","latitude":37.7911148,"longitude":-122.3954751,"country":"USA","state":"CA","city":"San Francisco","currency":"Dolares estadounidenses","total_amount_raised":25000000.0,"geo":{"type":"Point","coordinates":[-122.3954751,37.7911148]}},{"name":"Kongregate","category_code":"games_video","number_of_employees":20,"founded_year":2006.0,"deadpooled_year":null,"description":"Gaming social network","latitude":37.786942,"longitude":-122.401245,"country":"USA","state":"CA","city":"San Francisco","currency":"Dolares estadounidenses","total_amount_raised":19000000.0,"geo":{"type":"Point","coordinates":[-122.401245,37.786942]}},{"name":"BitTorrent","category_code":"web","number_of_employees":80,"founded_year":2004.0,"deadpooled_year":null,"description":"Software and Internet Protocols","latitude":37.790998,"longitude":-122.394668,"country":"USA","state":"CA","city":"San Francisco","currency":"Dolares estadounidenses","total_amount_raised":40800000.0,"geo":{"type":"Point","coordinates":[-122.394668,37.790998]}},{"name":"OpenTable","category_code":"web","number_of_employees":550,"founded_year":1998.0,"deadpooled_year":null,"description":"Online Restaurant Reservation Provider","latitude":37.785647,"longitude":-122.405265,"country":"USA","state":"CA","city":"San Francisco","currency":"Dolares estadounidenses","total_amount_raised":48000000.0,"geo":{"type":"Point","coordinates":[-122.405265,37.785647]}},{"name":"MocoSpace","category_code":"games_video","number_of_employees":25,"founded_year":2005.0,"deadpooled_year":null,"description":"Largest mobile games community in N Amer","latitude":42.350274,"longitude":-71.058768,"country":"USA","state":"MA","city":"Boston","currency":"Dolares estadounidenses","total_amount_raised":10500000.0,"geo":{"type":"Point","coordinates":[-71.058768,42.350274]}},{"name":"Tutor","category_code":"web","number_of_employees":55,"founded_year":1998.0,"deadpooled_year":null,"description":"","latitude":40.707921,"longitude":-74.004792,"country":"USA","state":"NY","city":"New York","currency":"Dolares estadounidenses","total_amount_raised":13500000.0,"geo":{"type":"Point","coordinates":[-74.004792,40.707921]}},{"name":"OMGPOP","category_code":"games_video","number_of_employees":50,"founded_year":2006.0,"deadpooled_year":null,"description":"Free online multiplayer game ","latitude":40.723384,"longitude":-74.001704,"country":"USA","state":"NY","city":"New York","currency":"Dolares estadounidenses","total_amount_raised":16600000.0000000019,"geo":{"type":"Point","coordinates":[-74.001704,40.723384]}},{"name":"SayNow","category_code":"mobile","number_of_employees":20,"founded_year":2005.0,"deadpooled_year":null,"description":"Reinventing the phone call","latitude":37.42746,"longitude":-122.143915,"country":"USA","state":"CA","city":"Palo Alto","currency":"Dolares estadounidenses","total_amount_raised":7500000.0,"geo":{"type":"Point","coordinates":[-122.143915,37.42746]}},{"name":"Crunchyroll","category_code":"games_video","number_of_employees":50,"founded_year":2008.0,"deadpooled_year":null,"description":"Digital Entertainment and Media Platform","latitude":37.781265,"longitude":-122.393229,"country":"USA","state":"CA","city":"San Francisco","currency":"Dolares estadounidenses","total_amount_raised":4800000.0,"geo":{"type":"Point","coordinates":[-122.393229,37.781265]}},{"name":"Ooyala","category_code":"analytics","number_of_employees":300,"founded_year":2007.0,"deadpooled_year":null,"description":"Video streaming, analytics, monetization","latitude":37.386665,"longitude":-122.084171,"country":"USA","state":"CA","city":"Mountain View","currency":"Dolares estadounidenses","total_amount_raised":122000000.0,"geo":{"type":"Point","coordinates":[-122.084171,37.386665]}},{"name":"PixSense","category_code":"mobile","number_of_employees":35,"founded_year":2003.0,"deadpooled_year":null,"description":"Monetizing User Generated Mobile Media","latitude":37.387114,"longitude":-121.973228,"country":"USA","state":"CA","city":"Santa Clara","currency":"Dolares estadounidenses","total_amount_raised":7400000.0,"geo":{"type":"Point","coordinates":[-121.973228,37.387114]}},{"name":"Behance","category_code":"web","number_of_employees":30,"founded_year":2006.0,"deadpooled_year":null,"description":"","latitude":40.74406,"longitude":-74.004592,"country":"USA","state":"NY","city":"New York","currency":"Dolares estadounidenses","total_amount_raised":6500000.0,"geo":{"type":"Point","coordinates":[-74.004592,40.74406]}},{"name":"FlowPlay","category_code":"games_video","number_of_employees":30,"founded_year":2006.0,"deadpooled_year":null,"description":"Virtual world technology and games","latitude":47.6015315,"longitude":-122.335943,"country":"USA","state":"WA","city":"Seattle","currency":"Dolares estadounidenses","total_amount_raised":3970000.0,"geo":{"type":"Point","coordinates":[-122.335943,47.6015315]}},{"name":"Fixya","category_code":"web","number_of_employees":30,"founded_year":2013.0,"deadpooled_year":null,"description":"Tech Support Community","latitude":37.566879,"longitude":-122.323895,"country":"USA","state":"CA","city":"San Mateo","currency":"Dolares estadounidenses","total_amount_raised":8000000.0,"geo":{"type":"Point","coordinates":[-122.323895,37.566879]}},{"name":"Mozilla","category_code":"web","number_of_employees":800,"founded_year":1998.0,"deadpooled_year":null,"description":"","latitude":37.418491,"longitude":-122.08744,"country":"USA","state":"CA","city":"Mountain View","currency":"Dolares estadounidenses","total_amount_raised":2300000.0,"geo":{"type":"Point","coordinates":[-122.08744,37.418491]}},{"name":"Worklight","category_code":"mobile","number_of_employees":30,"founded_year":2006.0,"deadpooled_year":null,"description":"mobile application platform software","latitude":40.756799,"longitude":-73.976348,"country":"USA","state":"NY","city":"New York","currency":"Dolares estadounidenses","total_amount_raised":17600000.0,"geo":{"type":"Point","coordinates":[-73.976348,40.756799]}},{"name":"Rupture","category_code":"games_video","number_of_employees":25,"founded_year":null,"deadpooled_year":null,"description":"Gaming Social Network","latitude":37.783898,"longitude":-122.395234,"country":"USA","state":"CA","city":"San Francisco","currency":"Dolares estadounidenses","total_amount_raised":3000000.0,"geo":{"type":"Point","coordinates":[-122.395234,37.783898]}},{"name":"Polyvore","category_code":"web","number_of_employees":73,"founded_year":2007.0,"deadpooled_year":null,"description":"Social Shopping Platform","latitude":37.386175,"longitude":-122.083487,"country":"USA","state":"CA","city":"Mountain View","currency":"Dolares estadounidenses","total_amount_raised":22100000.0,"geo":{"type":"Point","coordinates":[-122.083487,37.386175]}},{"name":"Automattic","category_code":"web","number_of_employees":200,"founded_year":2005.0,"deadpooled_year":null,"description":"Develops publishing platforms","latitude":37.744274,"longitude":-122.421344,"country":"USA","state":"CA","city":"San Francisco","currency":"Dolares estadounidenses","total_amount_raised":30600000.0,"geo":{"type":"Point","coordinates":[-122.421344,37.744274]}},{"name":"EchoSign","category_code":"web","number_of_employees":100,"founded_year":2005.0,"deadpooled_year":null,"description":"The Web's #1 Electronic Signature Servic","latitude":37.445326,"longitude":-122.160671,"country":"USA","state":"CA","city":"Palo Alto","currency":"Dolares estadounidenses","total_amount_raised":8500000.0,"geo":{"type":"Point","coordinates":[-122.160671,37.445326]}},{"name":"Baynote","category_code":"software","number_of_employees":80,"founded_year":2004.0,"deadpooled_year":null,"description":"","latitude":37.332271,"longitude":-122.006539,"country":"USA","state":"CA","city":"San Jose","currency":"Dolares estadounidenses","total_amount_raised":27800000.0,"geo":{"type":"Point","coordinates":[-122.006539,37.332271]}},{"name":"Disqus","category_code":"web","number_of_employees":43,"founded_year":2007.0,"deadpooled_year":null,"description":"The Web's Community of Communities","latitude":37.786906,"longitude":-122.397672,"country":"USA","state":"CA","city":"San Francisco","currency":"Dolares estadounidenses","total_amount_raised":10500000.0,"geo":{"type":"Point","coordinates":[-122.397672,37.786906]}},{"name":"Vobile","category_code":"web","number_of_employees":120,"founded_year":2005.0,"deadpooled_year":null,"description":"","latitude":37.399208,"longitude":-121.97895,"country":"USA","state":"CA","city":"Santa Clara","currency":"Dolares estadounidenses","total_amount_raised":10000000.0,"geo":{"type":"Point","coordinates":[-121.97895,37.399208]}},{"name":"RealSelf","category_code":"web","number_of_employees":23,"founded_year":2006.0,"deadpooled_year":null,"description":"","latitude":47.620716,"longitude":-122.347533,"country":"USA","state":"WA","city":"Seattle","currency":"Dolares estadounidenses","total_amount_raised":1950000.0,"geo":{"type":"Point","coordinates":[-122.347533,47.620716]}},{"name":"Splunk","category_code":"software","number_of_employees":500,"founded_year":2003.0,"deadpooled_year":null,"description":"Machine data analytics","latitude":37.78274,"longitude":-122.390945,"country":"USA","state":"CA","city":"San Francisco","currency":"Dolares estadounidenses","total_amount_raised":40000000.0,"geo":{"type":"Point","coordinates":[-122.390945,37.78274]}},{"name":"Kewego","category_code":"games_video","number_of_employees":65,"founded_year":2003.0,"deadpooled_year":null,"description":"Video sharing and distribution","latitude":46.227638,"longitude":2.213749,"country":"FRA","state":null,"city":"Paris","currency":"Dolares estadounidenses","total_amount_raised":19400000.0,"geo":{"type":"Point","coordinates":[2.213749,46.227638]}},{"name":"HubSpot","category_code":"software","number_of_employees":650,"founded_year":2006.0,"deadpooled_year":null,"description":"inbound marketing platform","latitude":42.375392,"longitude":-71.118487,"country":"USA","state":"MA","city":"Cambridge","currency":"Dolares estadounidenses","total_amount_raised":131000000.0,"geo":{"type":"Point","coordinates":[-71.118487,42.375392]}},{"name":"Viadeo","category_code":"social","number_of_employees":400,"founded_year":2004.0,"deadpooled_year":null,"description":"Professional Social Network","latitude":48.8747064,"longitude":2.3304161,"country":"FRA","state":null,"city":"Paris","currency":"Dolares estadounidenses","total_amount_raised":50200000.0,"geo":{"type":"Point","coordinates":[2.3304161,48.8747064]}},{"name":"HubPages","category_code":"web","number_of_employees":21,"founded_year":2006.0,"deadpooled_year":null,"description":"Most rewarding place to publish online","latitude":37.7876952,"longitude":-122.3991505,"country":"USA","state":"CA","city":"San Francisco","currency":"Dolares estadounidenses","total_amount_raised":8000000.0,"geo":{"type":"Point","coordinates":[-122.3991505,37.7876952]}},{"name":"Qik","category_code":"mobile","number_of_employees":60,"founded_year":2006.0,"deadpooled_year":null,"description":"Live video casting from cell phones","latitude":37.486368,"longitude":-122.230116,"country":"USA","state":"CA","city":"Redwood City","currency":"Dolares estadounidenses","total_amount_raised":14800000.0,"geo":{"type":"Point","coordinates":[-122.230116,37.486368]}},{"name":"Bunchball","category_code":"software","number_of_employees":60,"founded_year":2005.0,"deadpooled_year":null,"description":"Gamification","latitude":37.3208403,"longitude":-121.9479223,"country":"USA","state":"CA","city":"Redwood City","currency":"Dolares estadounidenses","total_amount_raised":12500000.0,"geo":{"type":"Point","coordinates":[-121.9479223,37.3208403]}},{"name":"4Home","category_code":"software","number_of_employees":36,"founded_year":2006.0,"deadpooled_year":null,"description":"XML Based Mobile Software Platform","latitude":37.385225,"longitude":-121.991912,"country":"USA","state":"CA","city":"Sunnyvale","currency":"Dolares estadounidenses","total_amount_raised":9150000.0,"geo":{"type":"Point","coordinates":[-121.991912,37.385225]}},{"name":"Zynga","category_code":"games_video","number_of_employees":115,"founded_year":2007.0,"deadpooled_year":null,"description":"Network of gaming applications","latitude":37.765158,"longitude":-122.404234,"country":"USA","state":"CA","city":"San Francisco","currency":"Dolares estadounidenses","total_amount_raised":860000000.0,"geo":{"type":"Point","coordinates":[-122.404234,37.765158]}},{"name":"clipsync","category_code":"web","number_of_employees":28,"founded_year":2007.0,"deadpooled_year":null,"description":"Social TV","latitude":37.2906027,"longitude":-121.9317853,"country":"USA","state":"CA","city":"San Francisco","currency":"Dolares estadounidenses","total_amount_raised":1510000.0,"geo":{"type":"Point","coordinates":[-121.9317853,37.2906027]}},{"name":"Craigslist","category_code":"web","number_of_employees":25,"founded_year":1995.0,"deadpooled_year":null,"description":"","latitude":37.762512,"longitude":-122.46649,"country":"USA","state":"CA","city":"San Francisco","currency":"Dolares estadounidenses","total_amount_raised":13500000.0,"geo":{"type":"Point","coordinates":[-122.46649,37.762512]}},{"name":"Mixbook","category_code":"web","number_of_employees":90,"founded_year":2006.0,"deadpooled_year":null,"description":"Online Photo Book Software","latitude":37.383844,"longitude":-121.918319,"country":"USA","state":"CA","city":"Palo Alto","currency":"Dolares estadounidenses","total_amount_raised":11000000.0,"geo":{"type":"Point","coordinates":[-121.918319,37.383844]}},{"name":"Oddcast","category_code":"web","number_of_employees":65,"founded_year":1999.0,"deadpooled_year":null,"description":"","latitude":40.752325,"longitude":-73.988477,"country":"USA","state":"NY","city":"New York","currency":"Dolares estadounidenses","total_amount_raised":4000000.0,"geo":{"type":"Point","coordinates":[-73.988477,40.752325]}},{"name":"Escapia","category_code":"software","number_of_employees":23,"founded_year":2000.0,"deadpooled_year":null,"description":"Online Vacation Rental Software","latitude":47.613896,"longitude":-122.3413,"country":"USA","state":"WA","city":"Seattle","currency":"Dolares estadounidenses","total_amount_raised":3600000.0,"geo":{"type":"Point","coordinates":[-122.3413,47.613896]}},{"name":"TheLadders","category_code":"web","number_of_employees":110,"founded_year":2003.0,"deadpooled_year":null,"description":"","latitude":40.725883,"longitude":-74.006196,"country":"USA","state":"NY","city":"New York","currency":"Dolares estadounidenses","total_amount_raised":7250000.0,"geo":{"type":"Point","coordinates":[-74.006196,40.725883]}},{"name":"Evernote","category_code":"software","number_of_employees":280,"founded_year":2004.0,"deadpooled_year":null,"description":"Remember everything.","latitude":37.386774,"longitude":-121.987661,"country":"USA","state":"CA","city":"Redwood City","currency":"Dolares estadounidenses","total_amount_raised":251000000.0,"geo":{"type":"Point","coordinates":[-121.987661,37.386774]}},{"name":"Inform Technologies","category_code":"web","number_of_employees":26,"founded_year":2004.0,"deadpooled_year":null,"description":"","latitude":40.744639,"longitude":-73.983963,"country":"USA","state":"NY","city":"New York","currency":"Dolares estadounidenses","total_amount_raised":29300000.0,"geo":{"type":"Point","coordinates":[-73.983963,40.744639]}},{"name":"Intuit","category_code":"software","number_of_employees":8000,"founded_year":1983.0,"deadpooled_year":null,"description":"business & financial mgmt. solutions","latitude":37.428373,"longitude":-122.097604,"country":"USA","state":"CA","city":"Mountain View","currency":"Dolares estadounidenses","total_amount_raised":6700000.0,"geo":{"type":"Point","coordinates":[-122.097604,37.428373]}},{"name":"SugarSync","category_code":"web","number_of_employees":60,"founded_year":2004.0,"deadpooled_year":null,"description":"Data Sync and Online Backup","latitude":37.54763,"longitude":-122.307887,"country":"USA","state":"CA","city":"San Mateo","currency":"Dolares estadounidenses","total_amount_raised":61000000.0,"geo":{"type":"Point","coordinates":[-122.307887,37.54763]}},{"name":"OLX","category_code":"web","number_of_employees":85,"founded_year":2006.0,"deadpooled_year":null,"description":"international online classifieds","latitude":40.8587524,"longitude":-73.7258199,"country":"USA","state":"NY","city":"New York","currency":"Dolares estadounidenses","total_amount_raised":28500000.0,"geo":{"type":"Point","coordinates":[-73.7258199,40.8587524]}},{"name":"Boonty","category_code":"games_video","number_of_employees":150,"founded_year":2001.0,"deadpooled_year":null,"description":"","latitude":40.717248,"longitude":-74.002662,"country":"USA","state":"NY","city":"New York","currency":"Dolares estadounidenses","total_amount_raised":10000000.0,"geo":{"type":"Point","coordinates":[-74.002662,40.717248]}},{"name":"Phreesia","category_code":"software","number_of_employees":70,"founded_year":2005.0,"deadpooled_year":null,"description":"patient check-in software","latitude":40.739794,"longitude":-73.985878,"country":"USA","state":"NY","city":"New York","currency":"Dolares estadounidenses","total_amount_raised":42700000.0,"geo":{"type":"Point","coordinates":[-73.985878,40.739794]}},{"name":"Elance","category_code":"web","number_of_employees":100,"founded_year":1998.0,"deadpooled_year":null,"description":"Online Employment Platform","latitude":37.398022,"longitude":-122.049143,"country":"USA","state":"CA","city":"Mountain View","currency":"Dolares estadounidenses","total_amount_raised":94800000.0,"geo":{"type":"Point","coordinates":[-122.049143,37.398022]}},{"name":"Clarizen","category_code":"software","number_of_employees":110,"founded_year":2005.0,"deadpooled_year":null,"description":"Work & Project management software","latitude":37.536044,"longitude":-122.328401,"country":"USA","state":"CA","city":"San Mateo","currency":"Dolares estadounidenses","total_amount_raised":56000000.0,"geo":{"type":"Point","coordinates":[-122.328401,37.536044]}},{"name":"Next New Networks","category_code":"web","number_of_employees":121,"founded_year":2007.0,"deadpooled_year":null,"description":"Micro television network platform","latitude":40.743808,"longitude":-73.983626,"country":"USA","state":"NY","city":"New York","currency":"Dolares estadounidenses","total_amount_raised":27100000.0,"geo":{"type":"Point","coordinates":[-73.983626,40.743808]}},{"name":"ShareThis","category_code":"social","number_of_employees":80,"founded_year":2007.0,"deadpooled_year":null,"description":"sharing network, social influence","latitude":37.4203945,"longitude":-122.0872274,"country":"USA","state":"CA","city":"Palo Alto","currency":"Dolares estadounidenses","total_amount_raised":82900000.0,"geo":{"type":"Point","coordinates":[-122.0872274,37.4203945]}},{"name":"Replay Solutions","category_code":"software","number_of_employees":30,"founded_year":2004.0,"deadpooled_year":null,"description":"Software development management","latitude":37.512318,"longitude":-122.200914,"country":"USA","state":"CA","city":"Redwood City","currency":"Dolares estadounidenses","total_amount_raised":15200000.0,"geo":{"type":"Point","coordinates":[-122.200914,37.512318]}},{"name":"InMage Systems","category_code":"software","number_of_employees":150,"founded_year":2001.0,"deadpooled_year":null,"description":"disaster recovery (DR) software","latitude":37.381034,"longitude":-121.971487,"country":"USA","state":"CA","city":"San Jose","currency":"Dolares estadounidenses","total_amount_raised":35900000.0,"geo":{"type":"Point","coordinates":[-121.971487,37.381034]}},{"name":"Mytopia","category_code":"games_video","number_of_employees":29,"founded_year":2007.0,"deadpooled_year":null,"description":null,"latitude":34.007967,"longitude":-118.489681,"country":"USA","state":"CA","city":"Palo Alto","currency":"Dolares estadounidenses","total_amount_raised":3500000.0,"geo":{"type":"Point","coordinates":[-118.489681,34.007967]}},{"name":"Zemanta","category_code":"web","number_of_employees":30,"founded_year":2007.0,"deadpooled_year":null,"description":"Related Content Recommendations","latitude":51.5141566,"longitude":-0.0934254,"country":"GBR","state":null,"city":"London","currency":"Dolares estadounidenses","total_amount_raised":7350000.0,"geo":{"type":"Point","coordinates":[-0.0934254,51.5141566]}},{"name":"Bango","category_code":"mobile","number_of_employees":70,"founded_year":1999.0,"deadpooled_year":null,"description":"Mobile payment & analytics","latitude":52.2155382,"longitude":0.124024,"country":"GBR","state":null,"city":"Cambridge","currency":"Dolares estadounidenses","total_amount_raised":10200000.0,"geo":{"type":"Point","coordinates":[0.124024,52.2155382]}},{"name":"Berkeley Design Automation","category_code":"software","number_of_employees":30,"founded_year":2001.0,"deadpooled_year":null,"description":" unified verification platform solutions","latitude":37.374659,"longitude":-121.970209,"country":"USA","state":"CA","city":"Santa Clara","currency":"Dolares estadounidenses","total_amount_raised":20300000.0,"geo":{"type":"Point","coordinates":[-121.970209,37.374659]}},{"name":"Marketo","category_code":"software","number_of_employees":260,"founded_year":2006.0,"deadpooled_year":null,"description":"Marketing Automation Software","latitude":37.5583,"longitude":-122.301385,"country":"USA","state":"CA","city":"San Mateo","currency":"Dolares estadounidenses","total_amount_raised":108000000.0,"geo":{"type":"Point","coordinates":[-122.301385,37.5583]}},{"name":"eYeka","category_code":"software","number_of_employees":40,"founded_year":2006.0,"deadpooled_year":null,"description":"Creative ideas for brands","latitude":48.856667,"longitude":2.350987,"country":"FRA","state":null,"city":"Paris","currency":"Dolares estadounidenses","total_amount_raised":9340000.0,"geo":{"type":"Point","coordinates":[2.350987,48.856667]}},{"name":"Cellufun","category_code":"games_video","number_of_employees":30,"founded_year":2005.0,"deadpooled_year":null,"description":"Mobile social gaming community","latitude":40.73993,"longitude":-73.9930489,"country":"USA","state":"NY","city":"New York","currency":"Dolares estadounidenses","total_amount_raised":5230000.0,"geo":{"type":"Point","coordinates":[-73.9930489,40.73993]}},{"name":"GuardianEdge Technologies","category_code":"software","number_of_employees":85,"founded_year":2002.0,"deadpooled_year":null,"description":"enterprise endpoint data protection","latitude":37.778613,"longitude":-122.395289,"country":"USA","state":"CA","city":"San Mateo","currency":"Dolares estadounidenses","total_amount_raised":19500000.0,"geo":{"type":"Point","coordinates":[-122.395289,37.778613]}},{"name":"Cellfish","category_code":"web","number_of_employees":220,"founded_year":2004.0,"deadpooled_year":null,"description":"Global Mobile Media Publisher","latitude":40.761855,"longitude":-73.983754,"country":"USA","state":"NY","city":"New York","currency":"Dolares estadounidenses","total_amount_raised":60000000.0,"geo":{"type":"Point","coordinates":[-73.983754,40.761855]}},{"name":"Mojiva","category_code":"mobile","number_of_employees":105,"founded_year":2008.0,"deadpooled_year":null,"description":"Mobile Advertising","latitude":40.7185614,"longitude":-73.998662,"country":"USA","state":"NY","city":"New York","currency":"Dolares estadounidenses","total_amount_raised":45800000.0,"geo":{"type":"Point","coordinates":[-73.998662,40.7185614]}},{"name":"Memeo","category_code":"software","number_of_employees":45,"founded_year":2003.0,"deadpooled_year":null,"description":"Data management Saas company","latitude":33.585767,"longitude":-117.731283,"country":"USA","state":"CA","city":"Santa Clara","currency":"Dolares estadounidenses","total_amount_raised":11100000.0,"geo":{"type":"Point","coordinates":[-117.731283,33.585767]}},{"name":"MUBI","category_code":"games_video","number_of_employees":20,"founded_year":2007.0,"deadpooled_year":null,"description":"streaming video on demand","latitude":37.44236,"longitude":-122.161025,"country":"USA","state":"CA","city":"Palo Alto","currency":"Dolares estadounidenses","total_amount_raised":8250000.0,"geo":{"type":"Point","coordinates":[-122.161025,37.44236]}},{"name":"UserVoice","category_code":"software","number_of_employees":22,"founded_year":2008.0,"deadpooled_year":null,"description":"Online feedback and support software","latitude":36.9751032,"longitude":-122.0253784,"country":"USA","state":"CA","city":"San Francisco","currency":"Dolares estadounidenses","total_amount_raised":1800000.0,"geo":{"type":"Point","coordinates":[-122.0253784,36.9751032]}},{"name":"Serious Business","category_code":"games_video","number_of_employees":22,"founded_year":2008.0,"deadpooled_year":null,"description":"Social Game Development Studio","latitude":37.7893215,"longitude":-122.4013624,"country":"USA","state":"CA","city":"San Francisco","currency":"Dolares estadounidenses","total_amount_raised":4000000.0,"geo":{"type":"Point","coordinates":[-122.4013624,37.7893215]}},{"name":"Kabam","category_code":"games_video","number_of_employees":650,"founded_year":2006.0,"deadpooled_year":null,"description":"Leader in Gaming","latitude":37.3944561,"longitude":-122.0785314,"country":"USA","state":"CA","city":"San Francisco","currency":"Dolares estadounidenses","total_amount_raised":125000000.0,"geo":{"type":"Point","coordinates":[-122.0785314,37.3944561]}},{"name":"FusionOps","category_code":"analytics","number_of_employees":25,"founded_year":2000.0,"deadpooled_year":null,"description":"collaboration software","latitude":37.3795251,"longitude":-122.0106131,"country":"USA","state":"CA","city":"Sunnyvale","currency":"Dolares estadounidenses","total_amount_raised":6090000.0,"geo":{"type":"Point","coordinates":[-122.0106131,37.3795251]}},{"name":"Zinch","category_code":"web","number_of_employees":80,"founded_year":2007.0,"deadpooled_year":null,"description":"Connecting students with opportunities","latitude":40.234451,"longitude":-111.658656,"country":"USA","state":"CA","city":"San Francisco","currency":"Dolares estadounidenses","total_amount_raised":5000000.0,"geo":{"type":"Point","coordinates":[-111.658656,40.234451]}},{"name":"Citizen Sports","category_code":"games_video","number_of_employees":27,"founded_year":null,"deadpooled_year":null,"description":"","latitude":37.777513,"longitude":-122.397044,"country":"USA","state":"CA","city":"San Francisco","currency":"Dolares estadounidenses","total_amount_raised":10000000.0,"geo":{"type":"Point","coordinates":[-122.397044,37.777513]}},{"name":"Transpera","category_code":"mobile","number_of_employees":20,"founded_year":2007.0,"deadpooled_year":null,"description":"mobile video advertising","latitude":37.785792,"longitude":-122.405081,"country":"USA","state":"CA","city":"San Francisco","currency":"Dolares estadounidenses","total_amount_raised":19500000.0,"geo":{"type":"Point","coordinates":[-122.405081,37.785792]}},{"name":"Aruspex","category_code":"software","number_of_employees":26,"founded_year":2003.0,"deadpooled_year":null,"description":"Workforce planning software","latitude":37.790346,"longitude":-122.40185,"country":"USA","state":"CA","city":"San Francisco","currency":"Dolares estadounidenses","total_amount_raised":3770000.0,"geo":{"type":"Point","coordinates":[-122.40185,37.790346]}},{"name":"VMware","category_code":"software","number_of_employees":13500,"founded_year":1998.0,"deadpooled_year":null,"description":"Virtualization Software","latitude":37.403315,"longitude":-122.145981,"country":"USA","state":"CA","city":"Palo Alto","currency":"Dolares estadounidenses","total_amount_raised":369000000.0,"geo":{"type":"Point","coordinates":[-122.145981,37.403315]}},{"name":"Medallia","category_code":"software","number_of_employees":140,"founded_year":2002.0,"deadpooled_year":null,"description":"Customer Experience (CX) Software","latitude":37.4520239,"longitude":-122.1797053,"country":"USA","state":"CA","city":"Palo Alto","currency":"Dolares estadounidenses","total_amount_raised":55000000.0,"geo":{"type":"Point","coordinates":[-122.1797053,37.4520239]}},{"name":"WSO2","category_code":"software","number_of_employees":228,"founded_year":2005.0,"deadpooled_year":null,"description":"Lean enterprise middleware vendor","latitude":37.390918,"longitude":-122.080843,"country":"USA","state":"CA","city":"Palo Alto","currency":"Dolares estadounidenses","total_amount_raised":20500000.0,"geo":{"type":"Point","coordinates":[-122.080843,37.390918]}},{"name":"Crowd Science","category_code":"web","number_of_employees":25,"founded_year":2007.0,"deadpooled_year":null,"description":"Online Market Research","latitude":37.419041,"longitude":-122.087471,"country":"USA","state":"CA","city":"San Jose","currency":"Dolares estadounidenses","total_amount_raised":2000000.0,"geo":{"type":"Point","coordinates":[-122.087471,37.419041]}},{"name":"BrandYourself","category_code":"web","number_of_employees":22,"founded_year":2009.0,"deadpooled_year":null,"description":"Take Control of Your Own Search Results","latitude":42.275263,"longitude":-71.24762,"country":"USA","state":"NY","city":"New York","currency":"Dolares estadounidenses","total_amount_raised":1500000.0,"geo":{"type":"Point","coordinates":[-71.24762,42.275263]}},{"name":"Pivot","category_code":"software","number_of_employees":40,"founded_year":2004.0,"deadpooled_year":null,"description":null,"latitude":42.364367,"longitude":-71.078978,"country":"USA","state":"MA","city":"Cambridge","currency":"Dolares estadounidenses","total_amount_raised":13100000.0,"geo":{"type":"Point","coordinates":[-71.078978,42.364367]}},{"name":"CrestaTech","category_code":"software","number_of_employees":40,"founded_year":2005.0,"deadpooled_year":null,"description":"software for wireless","latitude":37.383368,"longitude":-121.980186,"country":"USA","state":"CA","city":"Santa Clara","currency":"Dolares estadounidenses","total_amount_raised":20900000.0,"geo":{"type":"Point","coordinates":[-121.980186,37.383368]}},{"name":"Keibi Technologies","category_code":"software","number_of_employees":30,"founded_year":2006.0,"deadpooled_year":null,"description":"Moderating Software for Social Networks ","latitude":37.787646,"longitude":-122.402759,"country":"USA","state":"CA","city":"San Francisco","currency":"Dolares estadounidenses","total_amount_raised":5000000.0,"geo":{"type":"Point","coordinates":[-122.402759,37.787646]}},{"name":"BountyJobs","category_code":"web","number_of_employees":45,"founded_year":2006.0,"deadpooled_year":null,"description":"Headhunting and recruiting marketplace","latitude":40.754211,"longitude":-73.97917,"country":"USA","state":"NY","city":"New York","currency":"Dolares estadounidenses","total_amount_raised":29800000.0,"geo":{"type":"Point","coordinates":[-73.97917,40.754211]}},{"name":"FusionOne","category_code":"mobile","number_of_employees":140,"founded_year":1998.0,"deadpooled_year":null,"description":"","latitude":37.333439,"longitude":-121.895286,"country":"USA","state":"CA","city":"San Jose","currency":"Dolares estadounidenses","total_amount_raised":6000000.0,"geo":{"type":"Point","coordinates":[-121.895286,37.333439]}},{"name":"thePlatform","category_code":"web","number_of_employees":130,"founded_year":2000.0,"deadpooled_year":null,"description":"White-label video management\/publishing","latitude":47.617838,"longitude":-122.356027,"country":"USA","state":"WA","city":"Seattle","currency":"Dolares estadounidenses","total_amount_raised":8000000.0,"geo":{"type":"Point","coordinates":[-122.356027,47.617838]}},{"name":"MetaCarta","category_code":"mobile","number_of_employees":99999,"founded_year":2001.0,"deadpooled_year":null,"description":null,"latitude":42.36236,"longitude":-71.099692,"country":"USA","state":"MA","city":"Cambridge","currency":"Dolares estadounidenses","total_amount_raised":10000000.0,"geo":{"type":"Point","coordinates":[-71.099692,42.36236]}},{"name":"Achievers","category_code":"software","number_of_employees":150,"founded_year":1995.0,"deadpooled_year":null,"description":"Employee Recognition and Rewards ","latitude":43.637296,"longitude":-79.425455,"country":"USA","state":"CA","city":"San Francisco","currency":"Dolares estadounidenses","total_amount_raised":50100000.0,"geo":{"type":"Point","coordinates":[-79.425455,43.637296]}},{"name":"Wahanda","category_code":"web","number_of_employees":50,"founded_year":2008.0,"deadpooled_year":null,"description":"Wellness Community and Marketplace","latitude":41.792265,"longitude":1.996567,"country":"GBR","state":null,"city":"London","currency":"unknown","total_amount_raised":7000000.0,"geo":{"type":"Point","coordinates":[1.996567,41.792265]}},{"name":"Zendesk","category_code":"software","number_of_employees":400,"founded_year":2007.0,"deadpooled_year":null,"description":"customer service solution","latitude":55.676294,"longitude":12.568116,"country":"USA","state":"CA","city":"San Francisco","currency":"Dolares estadounidenses","total_amount_raised":85500000.0,"geo":{"type":"Point","coordinates":[12.568116,55.676294]}},{"name":"Epocrates","category_code":"software","number_of_employees":300,"founded_year":1998.0,"deadpooled_year":null,"description":"Decision support at the point of care","latitude":37.544987,"longitude":-122.291394,"country":"USA","state":"CA","city":"San Mateo","currency":"Dolares estadounidenses","total_amount_raised":35000000.0,"geo":{"type":"Point","coordinates":[-122.291394,37.544987]}},{"name":"Kontagent","category_code":"analytics","number_of_employees":80,"founded_year":2007.0,"deadpooled_year":null,"description":"Mobile Analytics","latitude":37.7797255,"longitude":-122.4020593,"country":"USA","state":"CA","city":"San Francisco","currency":"Dolares estadounidenses","total_amount_raised":17500000.0,"geo":{"type":"Point","coordinates":[-122.4020593,37.7797255]}},{"name":"Hunch","category_code":"web","number_of_employees":23,"founded_year":2007.0,"deadpooled_year":null,"description":"Decision making website.","latitude":40.741179,"longitude":-73.993182,"country":"USA","state":"NY","city":"New York","currency":"Dolares estadounidenses","total_amount_raised":19200000.0,"geo":{"type":"Point","coordinates":[-73.993182,40.741179]}},{"name":"ngmoco","category_code":"games_video","number_of_employees":150,"founded_year":2008.0,"deadpooled_year":null,"description":"Games for the iPhone","latitude":37.7705096,"longitude":-122.4015807,"country":"USA","state":"CA","city":"San Francisco","currency":"Dolares estadounidenses","total_amount_raised":44800000.0,"geo":{"type":"Point","coordinates":[-122.4015807,37.7705096]}},{"name":"SkyGrid","category_code":"web","number_of_employees":25,"founded_year":2005.0,"deadpooled_year":null,"description":" ","latitude":37.40754,"longitude":-122.010958,"country":"USA","state":"CA","city":"Sunnyvale","currency":"Dolares estadounidenses","total_amount_raised":13300000.0,"geo":{"type":"Point","coordinates":[-122.010958,37.40754]}},{"name":"MobileAware","category_code":"mobile","number_of_employees":50,"founded_year":2000.0,"deadpooled_year":null,"description":"","latitude":53.342648,"longitude":-6.280957,"country":"USA","state":"MA","city":"Boston","currency":"Dolares estadounidenses","total_amount_raised":6960000.0,"geo":{"type":"Point","coordinates":[-6.280957,53.342648]}},{"name":"UBmatrix","category_code":"software","number_of_employees":50,"founded_year":2005.0,"deadpooled_year":null,"description":"","latitude":37.522281,"longitude":-122.258139,"country":"USA","state":"CA","city":"Redwood City","currency":"Dolares estadounidenses","total_amount_raised":9300000.0,"geo":{"type":"Point","coordinates":[-122.258139,37.522281]}},{"name":"Lyft","category_code":"software","number_of_employees":180,"founded_year":2007.0,"deadpooled_year":null,"description":"Your friend with a car\u2122","latitude":37.7899027,"longitude":-122.4007846,"country":"USA","state":"CA","city":"San Francisco","currency":"Dolares estadounidenses","total_amount_raised":82500000.0,"geo":{"type":"Point","coordinates":[-122.4007846,37.7899027]}},{"name":"Demandbase","category_code":"analytics","number_of_employees":80,"founded_year":2006.0,"deadpooled_year":null,"description":"","latitude":37.796843,"longitude":-122.400346,"country":"USA","state":"CA","city":"San Francisco","currency":"Dolares estadounidenses","total_amount_raised":33000000.0,"geo":{"type":"Point","coordinates":[-122.400346,37.796843]}},{"name":"MetaPack","category_code":"software","number_of_employees":30,"founded_year":1999.0,"deadpooled_year":null,"description":"","latitude":51.52216,"longitude":-0.111242,"country":"GBR","state":null,"city":"London","currency":"Dolares estadounidenses","total_amount_raised":20500000.0,"geo":{"type":"Point","coordinates":[-0.111242,51.52216]}},{"name":"Swype","category_code":"software","number_of_employees":80,"founded_year":2002.0,"deadpooled_year":null,"description":"text input solutions","latitude":47.6495905,"longitude":-122.3497956,"country":"USA","state":"WA","city":"Seattle","currency":"Dolares estadounidenses","total_amount_raised":13900000.0,"geo":{"type":"Point","coordinates":[-122.3497956,47.6495905]}},{"name":"Telespree","category_code":"software","number_of_employees":20,"founded_year":1998.0,"deadpooled_year":null,"description":null,"latitude":37.777092,"longitude":-122.391011,"country":"USA","state":"CA","city":"San Francisco","currency":"Dolares estadounidenses","total_amount_raised":1000000.0,"geo":{"type":"Point","coordinates":[-122.391011,37.777092]}},{"name":"Lolapps","category_code":"web","number_of_employees":65,"founded_year":2008.0,"deadpooled_year":null,"description":"","latitude":37.7870923,"longitude":-122.3999719,"country":"USA","state":"CA","city":"San Francisco","currency":"Dolares estadounidenses","total_amount_raised":4000000.0,"geo":{"type":"Point","coordinates":[-122.3999719,37.7870923]}},{"name":"Gowalla","category_code":"web","number_of_employees":22,"founded_year":2007.0,"deadpooled_year":null,"description":"Mobile and Web Service","latitude":30.2729209,"longitude":-97.7443863,"country":"USA","state":"TX","city":"Austin","currency":"Dolares estadounidenses","total_amount_raised":10400000.0,"geo":{"type":"Point","coordinates":[-97.7443863,30.2729209]}},{"name":"Mindjet","category_code":"software","number_of_employees":200,"founded_year":1995.0,"deadpooled_year":null,"description":"Collaboration software and solutions","latitude":50.095312,"longitude":9.049981,"country":"USA","state":"CA","city":"San Francisco","currency":"Dolares estadounidenses","total_amount_raised":15000000.0,"geo":{"type":"Point","coordinates":[9.049981,50.095312]}},{"name":"Nexenta Systems","category_code":"software","number_of_employees":200,"founded_year":2005.0,"deadpooled_year":null,"description":"Global Leader in Software-Defined Storag","latitude":37.444098,"longitude":-122.161287,"country":"USA","state":"CA","city":"Santa Clara","currency":"Dolares estadounidenses","total_amount_raised":49900000.0,"geo":{"type":"Point","coordinates":[-122.161287,37.444098]}},{"name":"Sentrigo","category_code":"software","number_of_employees":40,"founded_year":2006.0,"deadpooled_year":null,"description":"database security software","latitude":37.55911,"longitude":-122.303493,"country":"USA","state":"CA","city":"Santa Clara","currency":"Dolares estadounidenses","total_amount_raised":9500000.0,"geo":{"type":"Point","coordinates":[-122.303493,37.55911]}},{"name":"Viximo","category_code":"web","number_of_employees":20,"founded_year":null,"deadpooled_year":null,"description":"Virtual Goods Platform","latitude":42.398424,"longitude":-71.130297,"country":"USA","state":"MA","city":"Cambridge","currency":"Dolares estadounidenses","total_amount_raised":5000000.0,"geo":{"type":"Point","coordinates":[-71.130297,42.398424]}},{"name":"Yipit","category_code":"web","number_of_employees":23,"founded_year":2010.0,"deadpooled_year":null,"description":"Every deal. One place.","latitude":40.744618,"longitude":-73.987764,"country":"USA","state":"NY","city":"New York","currency":"Dolares estadounidenses","total_amount_raised":7550000.0,"geo":{"type":"Point","coordinates":[-73.987764,40.744618]}},{"name":"SLI Systems","category_code":"web","number_of_employees":45,"founded_year":2001.0,"deadpooled_year":null,"description":"","latitude":37.3183744,"longitude":-122.0302814,"country":"USA","state":"CA","city":"San Jose","currency":"Dolares estadounidenses","total_amount_raised":1000000.0,"geo":{"type":"Point","coordinates":[-122.0302814,37.3183744]}},{"name":"Movirtu","category_code":"mobile","number_of_employees":50,"founded_year":2008.0,"deadpooled_year":null,"description":"Virtual SIM Solutions","latitude":51.5499708,"longitude":-0.1815999,"country":"GBR","state":null,"city":"London","currency":"Dolares estadounidenses","total_amount_raised":5500000.0,"geo":{"type":"Point","coordinates":[-0.1815999,51.5499708]}},{"name":"Nuxeo","category_code":"software","number_of_employees":50,"founded_year":2000.0,"deadpooled_year":null,"description":"Content Management Platform","latitude":48.8656319,"longitude":2.392119,"country":"FRA","state":null,"city":"Paris","currency":"Dolares estadounidenses","total_amount_raised":9250000.0,"geo":{"type":"Point","coordinates":[2.392119,48.8656319]}},{"name":"Virtual Bridges","category_code":"software","number_of_employees":45,"founded_year":2006.0,"deadpooled_year":null,"description":"Leading Desktop Virtualization Solution","latitude":30.27995,"longitude":-97.807274,"country":"USA","state":"TX","city":"Austin","currency":"Dolares estadounidenses","total_amount_raised":4000000.0,"geo":{"type":"Point","coordinates":[-97.807274,30.27995]}},{"name":"Verix","category_code":"software","number_of_employees":40,"founded_year":2003.0,"deadpooled_year":null,"description":null,"latitude":37.4187022,"longitude":-122.0874129,"country":"USA","state":"CA","city":"Mountain View","currency":"Dolares estadounidenses","total_amount_raised":12700000.0,"geo":{"type":"Point","coordinates":[-122.0874129,37.4187022]}},{"name":"Tableau Software","category_code":"software","number_of_employees":92,"founded_year":2003.0,"deadpooled_year":null,"description":"","latitude":47.6504518,"longitude":-122.3545086,"country":"USA","state":"WA","city":"Seattle","currency":"Dolares estadounidenses","total_amount_raised":15000000.0,"geo":{"type":"Point","coordinates":[-122.3545086,47.6504518]}},{"name":"SolarWinds","category_code":"software","number_of_employees":354,"founded_year":1999.0,"deadpooled_year":null,"description":"Network Management Software","latitude":30.245535,"longitude":-97.805621,"country":"USA","state":"TX","city":"Austin","currency":"Dolares estadounidenses","total_amount_raised":218000000.0,"geo":{"type":"Point","coordinates":[-97.805621,30.245535]}},{"name":"ClickSquared","category_code":"software","number_of_employees":175,"founded_year":1999.0,"deadpooled_year":null,"description":"Cloud Marketing Software","latitude":42.3913892,"longitude":-71.2709869,"country":"USA","state":"MA","city":"Boston","currency":"Dolares estadounidenses","total_amount_raised":56700000.0,"geo":{"type":"Point","coordinates":[-71.2709869,42.3913892]}},{"name":"RGB Networks","category_code":"games_video","number_of_employees":125,"founded_year":2003.0,"deadpooled_year":null,"description":"network video processing solutions","latitude":37.4123706,"longitude":-122.0216271,"country":"USA","state":"CA","city":"Sunnyvale","currency":"Dolares estadounidenses","total_amount_raised":52000000.0,"geo":{"type":"Point","coordinates":[-122.0216271,37.4123706]}},{"name":"mydeco","category_code":"web","number_of_employees":35,"founded_year":2007.0,"deadpooled_year":null,"description":"Online homewares ecommerce site","latitude":51.518101,"longitude":-0.468617,"country":"GBR","state":null,"city":"London","currency":"unknown","total_amount_raised":12500000.0,"geo":{"type":"Point","coordinates":[-0.468617,51.518101]}},{"name":"Klout","category_code":"social","number_of_employees":79,"founded_year":2008.0,"deadpooled_year":null,"description":"Measures Online Influence","latitude":34.0497638,"longitude":-118.2474287,"country":"USA","state":"CA","city":"San Francisco","currency":"Dolares estadounidenses","total_amount_raised":40000000.0,"geo":{"type":"Point","coordinates":[-118.2474287,34.0497638]}},{"name":"Packet Design","category_code":"software","number_of_employees":60,"founded_year":2003.0,"deadpooled_year":null,"description":"","latitude":37.3821368,"longitude":-121.970505,"country":"USA","state":"CA","city":"Santa Clara","currency":"Dolares estadounidenses","total_amount_raised":2800000.0,"geo":{"type":"Point","coordinates":[-121.970505,37.3821368]}},{"name":"Double Fusion","category_code":"web","number_of_employees":80,"founded_year":2004.0,"deadpooled_year":null,"description":"round-game, and web-based solutions","latitude":37.7887135,"longitude":-122.3927145,"country":"USA","state":"CA","city":"San Francisco","currency":"Dolares estadounidenses","total_amount_raised":59000000.0,"geo":{"type":"Point","coordinates":[-122.3927145,37.7887135]}},{"name":"5th Finger","category_code":"mobile","number_of_employees":50,"founded_year":2008.0,"deadpooled_year":null,"description":"Responsive Design Solutions Provider","latitude":37.7900992,"longitude":-122.4021988,"country":"USA","state":"CA","city":"San Francisco","currency":"Dolares estadounidenses","total_amount_raised":7000000.0,"geo":{"type":"Point","coordinates":[-122.4021988,37.7900992]}},{"name":"Mantara","category_code":"software","number_of_employees":50,"founded_year":2003.0,"deadpooled_year":null,"description":"Integrated high-speed trading solutions.","latitude":40.726517,"longitude":-74.032177,"country":"USA","state":"NY","city":"New York","currency":"Dolares estadounidenses","total_amount_raised":50600000.0,"geo":{"type":"Point","coordinates":[-74.032177,40.726517]}},{"name":"Adaptive Planning","category_code":"software","number_of_employees":65,"founded_year":2003.0,"deadpooled_year":null,"description":"Business Performance Management","latitude":37.4192309,"longitude":-122.0887097,"country":"USA","state":"CA","city":"Mountain View","currency":"Dolares estadounidenses","total_amount_raised":84500000.0,"geo":{"type":"Point","coordinates":[-122.0887097,37.4192309]}},{"name":"WebLayers","category_code":"software","number_of_employees":50,"founded_year":2002.0,"deadpooled_year":null,"description":"Services for IT Architecture","latitude":42.377535,"longitude":-71.149057,"country":"USA","state":"MA","city":"Cambridge","currency":"Dolares estadounidenses","total_amount_raised":10000000.0,"geo":{"type":"Point","coordinates":[-71.149057,42.377535]}},{"name":"Skout","category_code":"social","number_of_employees":100,"founded_year":2007.0,"deadpooled_year":null,"description":"Mobile App for Meeting New People","latitude":37.7800539,"longitude":-122.3912492,"country":"USA","state":"CA","city":"San Francisco","currency":"Dolares estadounidenses","total_amount_raised":22000000.0,"geo":{"type":"Point","coordinates":[-122.3912492,37.7800539]}},{"name":"CyberArts","category_code":"software","number_of_employees":55,"founded_year":null,"deadpooled_year":null,"description":"Gaming software developer","latitude":37.737609,"longitude":-122.435399,"country":"USA","state":"CA","city":"San Francisco","currency":"Dolares estadounidenses","total_amount_raised":16300000.0,"geo":{"type":"Point","coordinates":[-122.435399,37.737609]}},{"name":"Good Technology","category_code":"mobile","number_of_employees":800,"founded_year":1996.0,"deadpooled_year":null,"description":"Multi-platform enterprise mobility","latitude":37.518539,"longitude":-122.254275,"country":"USA","state":"CA","city":"Sunnyvale","currency":"Dolares estadounidenses","total_amount_raised":271000000.0,"geo":{"type":"Point","coordinates":[-122.254275,37.518539]}},{"name":"Backchannelmedia","category_code":"software","number_of_employees":25,"founded_year":2000.0,"deadpooled_year":null,"description":"Interactive TV Software Developer","latitude":42.3514855,"longitude":-71.0572879,"country":"USA","state":"MA","city":"Boston","currency":"Dolares estadounidenses","total_amount_raised":3000000.0,"geo":{"type":"Point","coordinates":[-71.0572879,42.3514855]}},{"name":"NEXAGE","category_code":"mobile","number_of_employees":60,"founded_year":2006.0,"deadpooled_year":null,"description":"Mobile Ad RTB Exchange","latitude":37.4777028,"longitude":-121.9250553,"country":"USA","state":"MA","city":"Boston","currency":"Dolares estadounidenses","total_amount_raised":19500000.0,"geo":{"type":"Point","coordinates":[-121.9250553,37.4777028]}},{"name":"Quantum Secure","category_code":"software","number_of_employees":160,"founded_year":2004.0,"deadpooled_year":null,"description":"Physical Identity Access Management","latitude":37.367838,"longitude":-121.915594,"country":"USA","state":"CA","city":"San Jose","currency":"Dolares estadounidenses","total_amount_raised":3540000.0,"geo":{"type":"Point","coordinates":[-121.915594,37.367838]}},{"name":"Medio","category_code":"software","number_of_employees":90,"founded_year":2004.0,"deadpooled_year":null,"description":"","latitude":47.611827,"longitude":-122.331308,"country":"USA","state":"WA","city":"Seattle","currency":"Dolares estadounidenses","total_amount_raised":30000000.0,"geo":{"type":"Point","coordinates":[-122.331308,47.611827]}},{"name":"Questra","category_code":"software","number_of_employees":45,"founded_year":null,"deadpooled_year":null,"description":"Internet Download Manager","latitude":37.5384185,"longitude":-122.252115,"country":"USA","state":"CA","city":"Redwood City","currency":"Dolares estadounidenses","total_amount_raised":12500000.0,"geo":{"type":"Point","coordinates":[-122.252115,37.5384185]}},{"name":"Major League Gaming","category_code":"games_video","number_of_employees":45,"founded_year":2002.0,"deadpooled_year":null,"description":"Global Leader in eSports","latitude":40.752672,"longitude":-73.97593,"country":"USA","state":"NY","city":"New York","currency":"Dolares estadounidenses","total_amount_raised":69000000.0,"geo":{"type":"Point","coordinates":[-73.97593,40.752672]}},{"name":"L4 Mobile","category_code":"mobile","number_of_employees":25,"founded_year":2008.0,"deadpooled_year":null,"description":"Concept to delivery- mobile services","latitude":47.676762,"longitude":-122.2049192,"country":"USA","state":"WA","city":"Seattle","currency":"Dolares estadounidenses","total_amount_raised":4800000.0,"geo":{"type":"Point","coordinates":[-122.2049192,47.676762]}},{"name":"Mendeley","category_code":"social","number_of_employees":27,"founded_year":2008.0,"deadpooled_year":null,"description":"Research management and collaboration","latitude":51.5224267,"longitude":-0.1046546,"country":"GBR","state":null,"city":"London","currency":"Dolares estadounidenses","total_amount_raised":2130000.0,"geo":{"type":"Point","coordinates":[-0.1046546,51.5224267]}},{"name":"Optify","category_code":"software","number_of_employees":45,"founded_year":2008.0,"deadpooled_year":null,"description":"Digital Marketing Software","latitude":47.603364,"longitude":-122.333359,"country":"USA","state":"WA","city":"Seattle","currency":"Dolares estadounidenses","total_amount_raised":10800000.0,"geo":{"type":"Point","coordinates":[-122.333359,47.603364]}},{"name":"Unity Technologies","category_code":"games_video","number_of_employees":200,"founded_year":2004.0,"deadpooled_year":null,"description":"Democratizing interactive 3D","latitude":55.6924605,"longitude":12.530107,"country":"USA","state":"CA","city":"San Francisco","currency":"Dolares estadounidenses","total_amount_raised":17500000.0,"geo":{"type":"Point","coordinates":[12.530107,55.6924605]}},{"name":"SpaBooker","category_code":"software","number_of_employees":42,"founded_year":2007.0,"deadpooled_year":null,"description":"Online Reservations and Point-of-Sale","latitude":40.738567,"longitude":-73.987199,"country":"USA","state":"NY","city":"New York","currency":"Dolares estadounidenses","total_amount_raised":14700000.0,"geo":{"type":"Point","coordinates":[-73.987199,40.738567]}},{"name":"Zinwave","category_code":"mobile","number_of_employees":22,"founded_year":2005.0,"deadpooled_year":null,"description":"wireless signal systems technology","latitude":52.1367844,"longitude":0.0732335,"country":"GBR","state":null,"city":"Cambridge","currency":"unknown","total_amount_raised":15100000.0,"geo":{"type":"Point","coordinates":[0.0732335,52.1367844]}},{"name":"SCVNGR","category_code":"games_video","number_of_employees":60,"founded_year":2008.0,"deadpooled_year":null,"description":"part game, part game platform","latitude":42.3406534,"longitude":-71.0680027,"country":"USA","state":"MA","city":"Boston","currency":"Dolares estadounidenses","total_amount_raised":40800000.0,"geo":{"type":"Point","coordinates":[-71.0680027,42.3406534]}},{"name":"Owlient","category_code":"games_video","number_of_employees":40,"founded_year":2005.0,"deadpooled_year":null,"description":"Browser games & community services","latitude":48.8308091,"longitude":2.3032201,"country":"FRA","state":null,"city":"Paris","currency":"unknown","total_amount_raised":3000000.0,"geo":{"type":"Point","coordinates":[2.3032201,48.8308091]}},{"name":"GameChanger Media","category_code":"software","number_of_employees":20,"founded_year":2009.0,"deadpooled_year":null,"description":"Digital platform for amateur sports.","latitude":40.7078343,"longitude":-74.0136605,"country":"USA","state":"NY","city":"New York","currency":"Dolares estadounidenses","total_amount_raised":3640000.0,"geo":{"type":"Point","coordinates":[-74.0136605,40.7078343]}},{"name":"ZillionTV","category_code":"games_video","number_of_employees":100,"founded_year":null,"deadpooled_year":null,"description":"Customized television service","latitude":37.3738725,"longitude":-121.9973546,"country":"USA","state":"CA","city":"Sunnyvale","currency":"Dolares estadounidenses","total_amount_raised":18100000.0,"geo":{"type":"Point","coordinates":[-121.9973546,37.3738725]}},{"name":"Z2Live","category_code":"games_video","number_of_employees":130,"founded_year":2009.0,"deadpooled_year":null,"description":"Mobile Games","latitude":47.6103008,"longitude":-122.3399782,"country":"USA","state":"WA","city":"Seattle","currency":"Dolares estadounidenses","total_amount_raised":6500000.0,"geo":{"type":"Point","coordinates":[-122.3399782,47.6103008]}},{"name":"Nimsoft","category_code":"software","number_of_employees":150,"founded_year":2002.0,"deadpooled_year":null,"description":"Performance and Availability Monitoring","latitude":37.524851,"longitude":-122.257185,"country":"USA","state":"CA","city":"Redwood City","currency":"Dolares estadounidenses","total_amount_raised":22300000.0,"geo":{"type":"Point","coordinates":[-122.257185,37.524851]}},{"name":"MetricStream","category_code":"software","number_of_employees":1000,"founded_year":1999.0,"deadpooled_year":null,"description":"Business Governance and Compliance","latitude":37.446535,"longitude":-122.118794,"country":"USA","state":"CA","city":"Palo Alto","currency":"Dolares estadounidenses","total_amount_raised":65000000.0,"geo":{"type":"Point","coordinates":[-122.118794,37.446535]}},{"name":"Chartbeat","category_code":"analytics","number_of_employees":50,"founded_year":2009.0,"deadpooled_year":null,"description":"Realtime Web analytics","latitude":40.73343,"longitude":-73.990967,"country":"USA","state":"NY","city":"New York","currency":"Dolares estadounidenses","total_amount_raised":14500000.0,"geo":{"type":"Point","coordinates":[-73.990967,40.73343]}},{"name":"Basho Technologies","category_code":"software","number_of_employees":110,"founded_year":2007.0,"deadpooled_year":null,"description":"Distributed Database and Cloud Storage ","latitude":42.365867,"longitude":-71.092285,"country":"USA","state":"MA","city":"Cambridge","currency":"Dolares estadounidenses","total_amount_raised":29900000.0,"geo":{"type":"Point","coordinates":[-71.092285,42.365867]}},{"name":"Milo","category_code":"web","number_of_employees":20,"founded_year":2008.0,"deadpooled_year":null,"description":"Local Shopping","latitude":37.444531,"longitude":-122.163352,"country":"USA","state":"CA","city":"Palo Alto","currency":"Dolares estadounidenses","total_amount_raised":4950000.0,"geo":{"type":"Point","coordinates":[-122.163352,37.444531]}},{"name":"Metreos Corporation","category_code":"software","number_of_employees":20,"founded_year":2001.0,"deadpooled_year":null,"description":"IP Telephony Development Tools","latitude":30.2350399,"longitude":-97.8001299,"country":"USA","state":"TX","city":"Austin","currency":"Dolares estadounidenses","total_amount_raised":4360000.0,"geo":{"type":"Point","coordinates":[-97.8001299,30.2350399]}},{"name":"Servo Software","category_code":"software","number_of_employees":40,"founded_year":2008.0,"deadpooled_year":null,"description":"Wireless software provider","latitude":37.552262,"longitude":-122.292146,"country":"USA","state":"CA","city":"San Mateo","currency":"Dolares estadounidenses","total_amount_raised":3010000.0,"geo":{"type":"Point","coordinates":[-122.292146,37.552262]}},{"name":"AeroScout","category_code":"mobile","number_of_employees":200,"founded_year":1999.0,"deadpooled_year":null,"description":"Real-Time Location System (RTLS)","latitude":37.5353434,"longitude":-122.2558368,"country":"USA","state":"CA","city":"Redwood City","currency":"Dolares estadounidenses","total_amount_raised":28000000.0,"geo":{"type":"Point","coordinates":[-122.2558368,37.5353434]}},{"name":"RainStor","category_code":"analytics","number_of_employees":40,"founded_year":2004.0,"deadpooled_year":null,"description":"DB for Managing & Analyzing Big Data","latitude":51.865488,"longitude":-2.235187,"country":"USA","state":"CA","city":"San Francisco","currency":"Dolares estadounidenses","total_amount_raised":26300000.0,"geo":{"type":"Point","coordinates":[-2.235187,51.865488]}},{"name":"Upland Software","category_code":"software","number_of_employees":75,"founded_year":1998.0,"deadpooled_year":null,"description":"Enterprise Software","latitude":42.3656123,"longitude":-71.0922022,"country":"USA","state":"MA","city":"Cambridge","currency":"Dolares estadounidenses","total_amount_raised":23300000.0,"geo":{"type":"Point","coordinates":[-71.0922022,42.3656123]}},{"name":"2 Minutes","category_code":"games_video","number_of_employees":105,"founded_year":2000.0,"deadpooled_year":null,"description":"Animation studio","latitude":48.8502056,"longitude":2.3698033,"country":"FRA","state":null,"city":"Paris","currency":"Dolares estadounidenses","total_amount_raised":1660000.0,"geo":{"type":"Point","coordinates":[2.3698033,48.8502056]}},{"name":"Electric Cloud","category_code":"software","number_of_employees":75,"founded_year":2002.0,"deadpooled_year":null,"description":"Software Production Management Solutions","latitude":37.3903639,"longitude":-122.0325963,"country":"USA","state":"CA","city":"Sunnyvale","currency":"Dolares estadounidenses","total_amount_raised":25600000.0,"geo":{"type":"Point","coordinates":[-122.0325963,37.3903639]}},{"name":"isango!","category_code":"web","number_of_employees":50,"founded_year":2006.0,"deadpooled_year":null,"description":"Travel experiences and activities","latitude":51.519816,"longitude":-0.1361616,"country":"GBR","state":null,"city":"London","currency":"Dolares estadounidenses","total_amount_raised":8000000.0,"geo":{"type":"Point","coordinates":[-0.1361616,51.519816]}},{"name":"Tribold","category_code":"software","number_of_employees":106,"founded_year":2003.0,"deadpooled_year":null,"description":"Enterprise Product Management Software","latitude":51.5209358,"longitude":-0.1424094,"country":"GBR","state":null,"city":"London","currency":"Dolares estadounidenses","total_amount_raised":28100000.0,"geo":{"type":"Point","coordinates":[-0.1424094,51.5209358]}},{"name":"UTOPY","category_code":"software","number_of_employees":40,"founded_year":1999.0,"deadpooled_year":null,"description":"","latitude":37.767575,"longitude":-122.411157,"country":"USA","state":"CA","city":"San Francisco","currency":"Dolares estadounidenses","total_amount_raised":7500000.0,"geo":{"type":"Point","coordinates":[-122.411157,37.767575]}},{"name":"Exent","category_code":"games_video","number_of_employees":100,"founded_year":1992.0,"deadpooled_year":null,"description":"Games on Demand Leader","latitude":40.7523796,"longitude":-74.005568,"country":"USA","state":"NY","city":"New York","currency":"Dolares estadounidenses","total_amount_raised":3000000.0,"geo":{"type":"Point","coordinates":[-74.005568,40.7523796]}},{"name":"OpTier","category_code":"analytics","number_of_employees":150,"founded_year":2005.0,"deadpooled_year":null,"description":"Application Management Software","latitude":40.754937,"longitude":-73.985647,"country":"USA","state":"NY","city":"New York","currency":"Dolares estadounidenses","total_amount_raised":77500000.0,"geo":{"type":"Point","coordinates":[-73.985647,40.754937]}},{"name":"WiNetworks","category_code":"mobile","number_of_employees":47,"founded_year":2002.0,"deadpooled_year":null,"description":"WiMAX systems","latitude":40.770437,"longitude":-73.990426,"country":"USA","state":"NY","city":"New York","currency":"Dolares estadounidenses","total_amount_raised":19000000.0,"geo":{"type":"Point","coordinates":[-73.990426,40.770437]}},{"name":"Jasper Design Automation","category_code":"software","number_of_employees":44,"founded_year":1999.0,"deadpooled_year":null,"description":"EDA software","latitude":37.393536,"longitude":-122.076747,"country":"USA","state":"CA","city":"Mountain View","currency":"Dolares estadounidenses","total_amount_raised":9130000.0,"geo":{"type":"Point","coordinates":[-122.076747,37.393536]}},{"name":"AlterPoint","category_code":"software","number_of_employees":35,"founded_year":2001.0,"deadpooled_year":null,"description":"Network Governance Software","latitude":30.354768,"longitude":-97.798152,"country":"USA","state":"TX","city":"Austin","currency":"Dolares estadounidenses","total_amount_raised":26800000.0,"geo":{"type":"Point","coordinates":[-97.798152,30.354768]}},{"name":"Testplant","category_code":"software","number_of_employees":50,"founded_year":2008.0,"deadpooled_year":null,"description":"GUI test tool","latitude":51.517356,"longitude":-0.1037742,"country":"GBR","state":null,"city":"London","currency":"Dolares estadounidenses","total_amount_raised":2560000.0,"geo":{"type":"Point","coordinates":[-0.1037742,51.517356]}},{"name":"Venturi Wireless","category_code":"mobile","number_of_employees":65,"founded_year":1993.0,"deadpooled_year":null,"description":"3G mobile optimization solutions","latitude":37.4099985,"longitude":-122.0018725,"country":"USA","state":"CA","city":"Sunnyvale","currency":"Dolares estadounidenses","total_amount_raised":10000000.0,"geo":{"type":"Point","coordinates":[-122.0018725,37.4099985]}}]